[
  {
    "id": "CASO_0001",
    "nombre": "María González Reyes",
    "edad": 17,
    "sexo": "Femenino",
    "status": "desaparecido",
    "fechaDesaparicion": "2025-03-10",
    "descripcion": "Cabello largo negro, complexión delgada, última vez vista con uniforme escolar azul. Señas particulares: lunar en mejilla derecha.",
    "ubicacion": "Col. Las Flores, Xonacatepec, Puebla",
    "lat": 19.0910,
    "lon": -98.1080,
    "contacto": "2221234567",
    "foto": "",
    "url": ""
  },
  {
    "id": "CASO_0002",
    "nombre": "Carlos Mendoza Pérez",
    "edad": 9,
    "sexo": "Masculino",
    "status": "alerta",
    "fechaDesaparicion": "2025-03-12",
    "descripcion": "Alerta Ámbar activada. Cabello corto castaño, ojos café, última vez vestía playera roja y pants azul. Posiblemente acompañado de adulto desconocido.",
    "ubicacion": "Barrio de San Miguel, Puebla",
    "lat": 19.0840,
    "lon": -98.0970,
    "contacto": "2229876543",
    "foto": "",
    "url": ""
  },
  {
    "id": "CASO_0003",
    "nombre": "Rosa Elena Vargas",
    "edad": 34,
    "sexo": "Femenino",
    "status": "localizado",
    "fechaDesaparicion": "2025-02-28",
    "descripcion": "Localizada con vida el 15 de marzo de 2025 en zona norte de Puebla. Se encontraba en buen estado de salud. Caso cerrado.",
    "ubicacion": "Localizada: Hospital General Norte, Puebla",
    "lat": 19.0960,
    "lon": -98.1020,
    "contacto": "",
    "foto": "",
    "url": ""
  },
  {
    "id": "CASO_0004",
    "nombre": "Juan Pablo Flores",
    "edad": 42,
    "sexo": "Masculino",
    "status": "encontrado",
    "fechaDesaparicion": "2025-01-15",
    "descripcion": "Identificado el 20 de febrero de 2025. En paz descanse.",
    "ubicacion": "Encontrado: Periférico Ecológico, Puebla",
    "lat": 19.0790,
    "lon": -98.1110,
    "contacto": "",
    "foto": "",
    "url": ""
  },
  {
    "id": "CASO_0005",
    "nombre": "Alejandra Ruiz Torres",
    "edad": 22,
    "sexo": "Femenino",
    "status": "desaparecido",
    "fechaDesaparicion": "2025-03-14",
    "descripcion": "Cabello corto teñido de rojo, tatuaje de rosa en antebrazo izquierdo, complexión media. Fue vista por última vez saliendo de trabajo en zona centro.",
    "ubicacion": "Zona Centro, Puebla",
    "lat": 19.0872,
    "lon": -98.1039,
    "contacto": "2224445566",
    "foto": "",
    "url": ""
  }
]
